{
  "type": "FeatureCollection",
  "features": [
    {
      "type": "Feature",
      "id": "london",
      "geometry": {
        "type": "Point",
        "coordinates": [
          -0.126236,
          51.500152
        ]
      },
      "properties": {
        "title": "London",
        "address": "1 Horse Guards Road\nSW1A 2HQ",
        "phone": "123 456",
        "hours": "Mon-Fri 9-5",
        "twilio_number": "+44123456789"
      }
    },
    {
      "type": "Feature",
      "id": "ac7112c3-e3cf-45cd-a8ff-9ba827b8e7ef",
      "geometry": {
        "type": "Point",
        "coordinates": [
          -0.0551488,
          51.5443995
        ]
      },
      "properties": {
        "title": "Hackney",
        "address": "Hackney Citizens Advice\n300 Mare St\nHackney\nLondon\nE8 1HE",
        "phone": "345 6789",
        "hours": "Mon-Fri 9-5",
        "twilio_number": "+442086291106"
      }
    },
    {
      "type": "Feature",
      "id": "paris",
      "geometry": {
        "type": "Point",
        "coordinates": [
          2.350987,
          48.85666
        ]
      },
      "properties": {
        "title": "Paris",
        "address": "35 Rue du Faubourg Saint-Honor√©\n75008 Paris",
        "booking_location_id": "new-york",
        "phone": "",
        "hours": "",
        "twilio_number": "+441133333333"
      }
    },
    {
      "type": "Feature",
      "id": "new-york",
      "geometry": {
        "type": "Point",
        "coordinates": [
          74.005973,
          40.714269
        ]
      },
      "properties": {
        "title": "New York",
        "address": "Manhattan\nNY 10036\nUnited States",
        "phone": "1-212-645-5550",
        "hours": "Mon-Fri 8-6",
        "twilio_number": "+441144444444"
      }
    }
  ]
}
